City_ID,City,Lat,Lng,Max Temp,Humidity,Cloudiness,Wind Speed,Country,Date
0,adamstown,-25.066,-130.1015,73.47,78,100,37.09,PN,Tue Jul 25 21:13:03 2023
1,iskateley,67.6803,53.1512,63.32,75,65,3.67,RU,Tue Jul 25 21:15:33 2023
2,koidu,8.4167,-10.8333,71.44,100,100,1.07,SL,Tue Jul 25 21:15:33 2023
3,grytviken,-54.2811,-36.5092,26.78,83,83,9.71,GS,Tue Jul 25 21:13:06 2023
4,rawson,-43.3002,-65.1023,42.46,78,24,11.12,AR,Tue Jul 25 21:13:50 2023
5,sorong,-0.8833,131.25,81.99,75,71,12.17,ID,Tue Jul 25 21:15:34 2023
6,new norfolk,-42.7826,147.0587,60.3,73,100,7.74,AU,Tue Jul 25 21:15:34 2023
7,puerto natales,-51.7236,-72.4875,27.77,92,82,4.88,CL,Tue Jul 25 21:15:34 2023
8,stanley,54.868,-1.6985,53.53,92,75,5.75,GB,Tue Jul 25 21:15:34 2023
9,port-aux-francais,-49.35,70.2167,38.39,94,100,31.74,TF,Tue Jul 25 21:12:58 2023
10,rongelap,11.1635,166.8941,83.5,75,100,15.68,MH,Tue Jul 25 21:15:35 2023
11,kapuskasing,49.4169,-82.4331,68.09,63,75,8.05,CA,Tue Jul 25 21:15:35 2023
12,albany,42.6001,-73.9662,67.8,90,64,1.01,US,Tue Jul 25 21:15:00 2023
13,lebu,-37.6167,-73.65,48.15,86,10,3.06,CL,Tue Jul 25 21:14:09 2023
14,dobryanka,58.4619,56.4165,60.46,94,31,5.91,RU,Tue Jul 25 21:15:36 2023
15,invercargill,-46.4,168.35,47.12,69,89,9.53,NZ,Tue Jul 25 21:13:03 2023
16,riverton,40.5219,-111.9391,86.49,35,0,19.57,US,Tue Jul 25 21:13:11 2023
17,camana,-16.6228,-72.7111,62.1,88,39,7.94,PE,Tue Jul 25 21:15:37 2023
18,ushuaia,-54.8,-68.3,33.46,75,75,13.8,AR,Tue Jul 25 21:15:37 2023
19,cruzeiro do sul,-29.5128,-51.9853,64.51,94,100,1.25,BR,Tue Jul 25 21:15:37 2023
20,happy valley-goose bay,53.3168,-60.3315,64.71,94,75,5.75,CA,Tue Jul 25 21:13:44 2023
21,puerto baquerizo moreno,-0.9,-89.6,77.16,81,97,10.54,EC,Tue Jul 25 21:12:28 2023
22,yuzhno-kurilsk,44.0306,145.8556,72.21,82,79,2.37,RU,Tue Jul 25 21:15:38 2023
23,al bawiti,28.3492,28.8659,77.11,66,4,7.96,EG,Tue Jul 25 21:15:39 2023
24,angra do heroismo,38.65,-27.2167,72.21,89,40,6.17,PT,Tue Jul 25 21:15:39 2023
25,margaret river,-33.95,115.0667,52.88,78,98,20.18,AU,Tue Jul 25 21:15:40 2023
26,manismata,-2.4667,111.0333,85.71,56,81,5.84,ID,Tue Jul 25 21:15:40 2023
27,ajuchitlan,20.7167,-100.0167,54.79,86,94,5.88,MX,Tue Jul 25 21:15:41 2023
28,vodnyy,63.5046,53.4095,62.62,73,56,1.39,RU,Tue Jul 25 21:15:41 2023
29,waitangi,-43.9535,-176.5597,49.82,93,100,3.0,NZ,Tue Jul 25 21:15:42 2023
30,fort bragg,35.139,-79.006,83.93,72,0,4.61,US,Tue Jul 25 21:15:42 2023
31,freeport,40.6576,-73.5832,71.58,83,75,1.99,US,Tue Jul 25 21:15:42 2023
32,whitehorse,60.7161,-135.0538,59.77,88,75,6.91,CA,Tue Jul 25 21:15:42 2023
33,blackmans bay,-43.0167,147.3167,59.13,64,100,6.89,AU,Tue Jul 25 21:15:43 2023
34,port mathurin,-19.6833,63.4167,73.94,78,44,14.38,MU,Tue Jul 25 21:15:43 2023
35,esil,51.9556,66.4042,65.34,81,100,10.25,KZ,Tue Jul 25 21:15:43 2023
36,iqaluit,63.7506,-68.5145,42.53,86,100,0.0,CA,Tue Jul 25 21:13:11 2023
37,dubinino,55.6192,89.0911,67.08,76,98,12.5,RU,Tue Jul 25 21:15:44 2023
38,bougouni,11.417,-7.479,73.65,93,93,4.07,ML,Tue Jul 25 21:15:44 2023
39,murici,-9.3067,-35.9433,68.29,94,72,0.94,BR,Tue Jul 25 21:12:55 2023
40,bilibino,68.0546,166.4372,52.84,93,100,1.59,RU,Tue Jul 25 21:13:04 2023
41,torres,-29.3353,-49.7269,66.83,97,100,5.75,BR,Tue Jul 25 21:15:14 2023
42,olonkinbyen,70.9221,-8.7187,41.67,85,100,11.07,SJ,Tue Jul 25 21:13:34 2023
43,segezha,63.7415,34.3222,54.32,92,13,2.91,RU,Tue Jul 25 21:15:45 2023
44,ribeira grande,38.5167,-28.7,69.78,89,6,3.0,PT,Tue Jul 25 21:15:00 2023
45,mana,5.6592,-53.7767,77.7,88,37,7.18,GF,Tue Jul 25 21:14:10 2023
46,urumqi,43.801,87.6005,90.55,17,0,4.47,CN,Tue Jul 25 21:15:46 2023
47,edinburgh of the seven seas,-37.0676,-12.3116,52.02,53,100,18.7,SH,Tue Jul 25 21:13:08 2023
48,gidole,5.65,37.3667,58.35,73,99,3.65,ET,Tue Jul 25 21:15:46 2023
49,yellowknife,62.456,-114.3525,73.92,31,100,16.11,CA,Tue Jul 25 21:13:02 2023
50,puerto ayora,-0.7393,-90.3518,76.55,97,47,1.99,EC,Tue Jul 25 21:15:47 2023
51,college,64.8569,-147.8028,85.59,54,75,8.05,US,Tue Jul 25 21:15:47 2023
52,nha trang,12.25,109.1833,89.6,55,36,1.66,VN,Tue Jul 25 21:15:08 2023
53,saipan,15.1355,145.701,88.5,100,75,16.11,MP,Tue Jul 25 21:15:48 2023
54,bethel,41.3712,-73.414,67.77,90,20,0.0,US,Tue Jul 25 21:15:48 2023
55,martapura,-3.4167,114.85,87.89,58,20,5.75,ID,Tue Jul 25 21:15:48 2023
56,gobernador virasora,-28.05,-56.0333,65.03,99,100,1.99,AR,Tue Jul 25 21:15:48 2023
57,bredasdorp,-34.5322,20.0403,47.52,67,96,3.44,ZA,Tue Jul 25 21:14:13 2023
58,sinabang,2.4803,96.3801,82.85,76,47,3.8,ID,Tue Jul 25 21:15:49 2023
59,georgetown,5.4112,100.3354,89.55,72,20,3.44,MY,Tue Jul 25 21:15:49 2023
60,alesund,62.4723,6.1549,58.75,93,100,9.22,NO,Tue Jul 25 21:15:49 2023
61,port alfred,-33.5906,26.891,59.58,37,0,8.03,ZA,Tue Jul 25 21:15:49 2023
62,jacksonville,30.3322,-81.6556,80.02,84,75,3.44,US,Tue Jul 25 21:08:30 2023
63,bindura,-17.3019,31.3306,48.04,95,23,2.08,ZW,Tue Jul 25 21:15:50 2023
64,san patricio,28.017,-97.5169,85.84,72,0,12.3,US,Tue Jul 25 21:15:50 2023
65,afaahiti,-17.75,-149.2833,78.67,84,0,17.09,PF,Tue Jul 25 21:15:50 2023
66,isafjordur,66.0755,-23.124,43.3,85,61,8.57,IS,Tue Jul 25 21:15:50 2023
67,tiksi,71.6872,128.8694,41.47,78,99,7.14,RU,Tue Jul 25 21:15:51 2023
68,akureyri,65.6835,-18.0878,48.13,81,100,6.91,IS,Tue Jul 25 21:15:51 2023
69,ust-nera,64.5667,143.2,68.79,49,54,4.61,RU,Tue Jul 25 21:15:51 2023
70,atmore,31.0238,-87.4939,77.85,80,29,5.21,US,Tue Jul 25 21:15:51 2023
71,kurmuk,10.55,34.2833,72.19,84,100,2.21,SD,Tue Jul 25 21:15:52 2023
72,petropavlovsk-kamchatsky,53.0452,158.6483,72.19,60,20,11.18,RU,Tue Jul 25 21:13:28 2023
73,natal,-5.795,-35.2094,70.45,88,0,3.44,BR,Tue Jul 25 21:13:41 2023
74,ulsteinvik,62.3432,5.8487,58.75,92,88,5.01,NO,Tue Jul 25 21:15:52 2023
75,puerto armuelles,8.2833,-82.8667,82.09,70,100,3.0,PA,Tue Jul 25 21:11:01 2023
76,vorgashor,67.5833,63.95,66.97,73,100,7.2,RU,Tue Jul 25 21:13:53 2023
77,svay rieng,11.0879,105.7993,88.88,59,56,16.53,KH,Tue Jul 25 21:15:53 2023
78,longyearbyen,78.2186,15.6401,51.64,50,0,5.75,SJ,Tue Jul 25 21:15:53 2023
79,ilulissat,69.2167,-51.1,37.42,100,100,1.14,GL,Tue Jul 25 21:14:55 2023
80,thunder bay,48.4001,-89.3168,66.18,72,75,2.3,CA,Tue Jul 25 21:15:32 2023
81,ponta delgada,37.7333,-25.6667,70.52,83,75,4.61,PT,Tue Jul 25 21:15:54 2023
82,sokoni,-6.4333,39.55,76.03,80,9,13.18,TZ,Tue Jul 25 21:15:54 2023
83,mokhsogollokh,61.4681,128.9203,77.83,31,11,8.72,RU,Tue Jul 25 21:13:42 2023
84,bentiu,9.2333,29.8333,72.03,96,100,5.57,SS,Tue Jul 25 21:15:55 2023
85,remire-montjoly,4.9167,-52.2667,75.24,100,0,0.0,GF,Tue Jul 25 21:14:20 2023
86,kingston,17.997,-76.7936,85.15,86,20,11.5,JM,Tue Jul 25 21:15:55 2023
87,ain el bya,35.8039,-0.3018,71.89,44,0,2.84,DZ,Tue Jul 25 21:15:55 2023
88,shingu,33.7333,135.9833,86.9,65,43,5.26,JP,Tue Jul 25 21:15:55 2023
89,murashi,59.3999,48.9615,56.37,88,86,3.09,RU,Tue Jul 25 21:15:56 2023
90,east london,-33.0153,27.9116,45.54,81,0,9.22,ZA,Tue Jul 25 21:15:56 2023
91,ewo,-0.8725,14.8206,76.64,74,86,5.3,CG,Tue Jul 25 21:15:56 2023
92,jeddah,21.5169,39.2192,89.46,17,0,3.44,SA,Tue Jul 25 21:15:56 2023
93,faya-largeau,17.9257,19.1043,91.09,14,99,10.63,TD,Tue Jul 25 21:15:57 2023
94,colonia,50.9333,6.95,57.85,79,40,3.44,DE,Tue Jul 25 21:13:25 2023
95,chul'man,56.8479,124.9104,76.6,53,23,0.94,RU,Tue Jul 25 21:15:57 2023
96,kharp,66.8014,65.8081,66.13,65,100,8.88,RU,Tue Jul 25 21:15:57 2023
97,ola,59.5833,151.2833,77.14,85,95,8.72,RU,Tue Jul 25 21:15:58 2023
98,port saint john's,-31.6229,29.5448,60.1,52,100,7.61,ZA,Tue Jul 25 21:15:58 2023
99,pinotepa nacional,16.3167,-98.0167,75.6,98,100,4.09,MX,Tue Jul 25 21:15:58 2023
100,port moresby,-9.4431,147.1797,83.62,65,75,11.5,PG,Tue Jul 25 21:12:03 2023
101,chervyen',53.7059,28.4313,62.91,98,100,10.78,BY,Tue Jul 25 21:15:59 2023
102,tofol,5.3248,163.0078,80.38,94,75,3.44,FM,Tue Jul 25 21:15:59 2023
103,kismayo,-0.3582,42.5454,76.03,80,40,14.18,SO,Tue Jul 25 21:15:59 2023
104,bechar,31.6167,-2.2167,89.92,13,1,6.91,DZ,Tue Jul 25 21:15:53 2023
105,tadine,-21.55,167.8833,69.89,56,72,18.23,NC,Tue Jul 25 21:16:00 2023
106,uturoa,-16.7333,-151.4333,79.48,81,14,10.2,PF,Tue Jul 25 21:16:00 2023
107,kill devil hills,36.0307,-75.676,82.98,81,0,9.22,US,Tue Jul 25 21:16:00 2023
108,lepsy,46.235,78.9456,87.76,20,93,0.63,KZ,Tue Jul 25 21:16:01 2023
109,quepos,9.4236,-84.1652,80.56,82,100,2.82,CR,Tue Jul 25 21:16:02 2023
110,gebeit,21.0667,36.3167,87.13,13,100,4.45,SD,Tue Jul 25 21:16:02 2023
111,marat,25.0701,45.4615,87.67,11,96,7.49,SA,Tue Jul 25 21:16:03 2023
112,rio preto da eva,-2.6994,-59.6997,75.79,57,5,1.57,BR,Tue Jul 25 21:16:04 2023
113,santa ana,33.7456,-117.8678,93.65,64,20,9.22,US,Tue Jul 25 21:15:45 2023
114,labasa,-16.4167,179.3833,76.39,73,100,5.68,FJ,Tue Jul 25 21:15:06 2023
115,nuuk,64.1835,-51.7216,43.41,87,11,9.22,GL,Tue Jul 25 21:16:05 2023
116,butembo,0.15,29.2833,60.33,78,95,2.33,CD,Tue Jul 25 21:16:05 2023
117,calama,-22.4667,-68.9333,47.14,26,1,2.51,CL,Tue Jul 25 21:16:06 2023
118,hilo,19.7297,-155.09,88.29,85,100,8.05,US,Tue Jul 25 21:11:08 2023
119,kosh-agach,50.0,88.6667,65.3,44,4,2.08,RU,Tue Jul 25 21:16:07 2023
120,port elizabeth,-33.918,25.5701,44.89,81,0,4.61,ZA,Tue Jul 25 21:14:04 2023
121,dudinka,69.4058,86.1778,72.63,53,0,9.95,RU,Tue Jul 25 21:16:08 2023
122,buguruslan,53.6554,52.442,66.85,65,34,3.47,RU,Tue Jul 25 21:16:08 2023
123,thompson,55.7435,-97.8558,64.56,63,40,10.36,CA,Tue Jul 25 21:13:08 2023
124,chui,-33.6971,-53.4616,56.21,95,100,9.89,UY,Tue Jul 25 21:16:09 2023
125,mildura,-34.2,142.15,66.07,62,0,4.85,AU,Tue Jul 25 21:16:09 2023
126,antsiranana,-12.2787,49.2917,70.18,81,4,11.21,MG,Tue Jul 25 21:16:09 2023
127,utrik,11.2278,169.8474,83.68,79,99,16.64,MH,Tue Jul 25 21:16:10 2023
128,quelimane,-17.8786,36.8883,62.55,94,0,3.44,MZ,Tue Jul 25 21:16:10 2023
129,kaynarca,41.0308,30.3075,79.59,46,0,4.94,TR,Tue Jul 25 21:16:10 2023
130,hue,16.4667,107.6,89.71,62,20,5.75,VN,Tue Jul 25 21:16:11 2023
131,victorica,-36.2151,-65.4359,45.19,83,2,3.56,AR,Tue Jul 25 21:16:11 2023
132,lundazi,-12.2929,33.1782,56.55,64,72,10.42,ZM,Tue Jul 25 21:16:11 2023
133,lockwood,45.8191,-108.4149,89.49,35,40,0.0,US,Tue Jul 25 21:13:09 2023
134,st. john's,47.5649,-52.7093,64.27,91,0,6.91,CA,Tue Jul 25 21:14:27 2023
135,lobujya,27.95,86.8167,39.99,88,98,4.56,NP,Tue Jul 25 21:16:12 2023
136,lompoc,34.6391,-120.4579,82.78,87,0,8.05,US,Tue Jul 25 21:15:12 2023
137,khovd,48.0056,91.6419,73.58,27,45,3.74,MN,Tue Jul 25 21:16:13 2023
138,sitka,57.0531,-135.33,60.69,82,100,0.0,US,Tue Jul 25 21:13:13 2023
139,basco,20.4487,121.9702,84.04,84,100,45.37,PH,Tue Jul 25 21:16:14 2023
140,dakhla,23.6848,-15.958,67.64,89,4,20.71,EH,Tue Jul 25 21:16:14 2023
141,ukiah,39.1502,-123.2078,82.29,39,0,0.0,US,Tue Jul 25 21:15:10 2023
142,keflavik,64.0049,-22.5624,54.03,82,75,9.22,IS,Tue Jul 25 21:16:15 2023
143,nova sintra,14.8667,-24.7167,71.89,88,82,12.48,CV,Tue Jul 25 21:14:55 2023
144,tutoia,-2.7619,-42.2744,77.74,84,24,9.42,BR,Tue Jul 25 21:11:16 2023
145,mournies,35.4764,24.0092,79.2,61,0,0.0,GR,Tue Jul 25 21:16:16 2023
146,gadzhiyevo,69.2551,33.3362,50.47,95,98,6.91,RU,Tue Jul 25 21:14:43 2023
147,kenora,49.8167,-94.4337,72.57,78,75,15.01,CA,Tue Jul 25 21:16:16 2023
148,hawaiian paradise park,19.5933,-154.9731,80.73,83,100,8.05,US,Tue Jul 25 21:13:23 2023
149,caburan,5.9181,125.6411,84.94,72,91,12.46,PH,Tue Jul 25 21:16:17 2023
150,khandyga,62.6667,135.6,74.17,57,60,4.18,RU,Tue Jul 25 21:13:59 2023
151,papatowai,-46.5619,169.4708,45.97,75,63,13.42,NZ,Tue Jul 25 21:16:17 2023
152,stavelot,50.393,5.9343,54.64,92,94,4.99,BE,Tue Jul 25 21:16:18 2023
153,nemuro,43.3236,145.575,65.68,95,85,7.07,JP,Tue Jul 25 21:16:18 2023
154,taulaga,-11.0553,-171.0883,82.06,71,5,14.88,AS,Tue Jul 25 21:16:19 2023
155,la passe,45.5549,-0.8967,58.98,79,61,4.92,FR,Tue Jul 25 21:14:12 2023
156,coquimbo,-29.9533,-71.3436,56.93,88,75,9.22,CL,Tue Jul 25 21:14:56 2023
157,vilyuchinsk,52.9306,158.4028,73.67,61,33,4.45,RU,Tue Jul 25 21:13:14 2023
158,arenapolis,-14.4503,-56.8461,74.03,41,0,4.88,BR,Tue Jul 25 21:11:44 2023
159,mikhaylovskoye,51.8239,79.7172,79.56,34,7,2.44,RU,Tue Jul 25 21:16:20 2023
160,kayangel,8.0823,134.7173,77.56,86,100,8.99,PW,Tue Jul 25 21:14:35 2023
161,mahenge,-8.6833,36.7167,55.45,61,1,2.13,TZ,Tue Jul 25 21:16:20 2023
162,mesquite,32.7668,-96.5992,95.52,49,3,4.0,US,Tue Jul 25 21:13:32 2023
163,mao,39.8885,4.2658,75.76,57,100,11.5,ES,Tue Jul 25 21:16:21 2023
164,bang saphan,11.2126,99.5117,86.27,66,90,8.57,TH,Tue Jul 25 21:16:21 2023
165,novodvinsk,64.4165,40.8122,56.82,85,23,4.61,RU,Tue Jul 25 21:16:22 2023
166,broken hill,-31.95,141.4333,63.01,35,0,7.87,AU,Tue Jul 25 21:16:22 2023
167,andergrove,-21.0833,149.1833,73.65,64,4,21.5,AU,Tue Jul 25 21:16:22 2023
168,west island,-12.1568,96.8225,78.78,73,75,19.57,CC,Tue Jul 25 21:16:23 2023
169,sterling,39.0062,-77.4286,75.45,85,20,0.0,US,Tue Jul 25 21:08:30 2023
170,sasovo,54.3537,41.9199,63.23,89,91,9.86,RU,Tue Jul 25 21:16:23 2023
171,katsuren-haebaru,26.3369,127.8719,84.97,76,75,18.41,JP,Tue Jul 25 21:16:24 2023
172,alice,27.7523,-98.0697,85.44,74,0,10.36,US,Tue Jul 25 21:16:24 2023
173,miramichi,47.0043,-65.4654,67.78,87,100,7.16,CA,Tue Jul 25 21:16:24 2023
174,maragogi,-9.0122,-35.2225,74.32,84,75,10.51,BR,Tue Jul 25 21:16:24 2023
175,wailua homesteads,22.0669,-159.378,83.19,78,40,19.57,US,Tue Jul 25 21:13:11 2023
176,port hedland,-20.3167,118.5667,75.25,23,75,14.97,AU,Tue Jul 25 21:16:25 2023
177,phek,25.6667,94.5,65.32,96,97,0.38,IN,Tue Jul 25 21:16:25 2023
178,namibe,-15.1961,12.1522,59.2,89,4,9.31,AO,Tue Jul 25 21:15:14 2023
179,bodaybo,57.8506,114.1933,81.52,54,10,1.54,RU,Tue Jul 25 21:13:36 2023
180,kazanka,47.8462,32.8218,68.9,81,85,15.1,UA,Tue Jul 25 21:16:26 2023
181,kalaleh,37.3807,55.4916,78.4,83,100,4.61,IR,Tue Jul 25 21:16:26 2023
182,moose jaw,50.4001,-105.5344,77.99,21,0,8.16,CA,Tue Jul 25 21:16:26 2023
183,cheboksary,56.1322,47.2519,61.39,100,40,4.47,RU,Tue Jul 25 21:16:27 2023
184,wotje,9.4543,170.2367,82.92,81,100,16.67,MH,Tue Jul 25 21:15:39 2023
185,tegal,-6.8694,109.1402,83.82,54,42,2.15,ID,Tue Jul 25 21:16:27 2023
186,lazaro cardenas,17.9583,-102.2,81.54,78,94,3.29,MX,Tue Jul 25 21:15:34 2023
187,saudarkrokur,65.7461,-19.6394,43.18,92,51,3.2,IS,Tue Jul 25 21:16:28 2023
188,haiku-pauwela,20.9219,-156.3051,82.42,64,40,24.16,US,Tue Jul 25 21:15:56 2023
189,nogliki,51.8333,143.1667,57.61,97,100,10.25,RU,Tue Jul 25 21:16:29 2023
190,wewak,-3.5534,143.6268,82.22,74,67,8.68,PG,Tue Jul 25 21:16:29 2023
191,la ronge,55.1001,-105.2842,68.25,68,100,12.66,CA,Tue Jul 25 21:16:29 2023
192,sechura,-5.5569,-80.8222,71.28,75,26,13.22,PE,Tue Jul 25 21:16:29 2023
193,naga,13.6192,123.1814,82.63,88,100,19.51,PH,Tue Jul 25 21:16:30 2023
194,sao gabriel da cachoeira,-0.1303,-67.0892,73.63,97,97,2.42,BR,Tue Jul 25 21:14:01 2023
195,kirensk,57.7853,108.1119,77.34,61,58,3.27,RU,Tue Jul 25 21:16:30 2023
196,beeville,28.4008,-97.7483,84.61,69,0,5.75,US,Tue Jul 25 21:16:30 2023
197,hasaki,35.7333,140.8333,104.29,72,28,9.48,JP,Tue Jul 25 21:16:31 2023
198,galle,6.0367,80.217,80.22,82,95,8.9,LK,Tue Jul 25 21:16:31 2023
199,bontang,0.1333,117.5,85.41,65,4,8.75,ID,Tue Jul 25 21:16:31 2023
200,arraial do cabo,-22.9661,-42.0278,73.26,83,40,13.8,BR,Tue Jul 25 21:16:31 2023
201,vilyuysk,63.7553,121.6247,72.75,35,73,8.23,RU,Tue Jul 25 21:16:32 2023
202,greymouth,-42.4667,171.2,50.5,57,0,5.48,NZ,Tue Jul 25 21:16:28 2023
203,rantauprapat,2.1,99.8333,87.89,54,66,1.74,ID,Tue Jul 25 21:16:32 2023
204,talnakh,69.4865,88.3972,72.21,49,0,0.94,RU,Tue Jul 25 21:16:32 2023
205,kotlas,61.2611,46.6556,56.46,88,49,3.87,RU,Tue Jul 25 21:16:33 2023
206,nibley,41.6744,-111.833,83.82,39,0,6.91,US,Tue Jul 25 21:16:33 2023
207,egilsstadir,65.2653,-14.3948,40.91,93,75,1.14,IS,Tue Jul 25 21:16:33 2023
208,saint croix,17.7397,-64.7388,81.05,88,20,11.5,VI,Tue Jul 25 21:16:33 2023
209,burewala,30.1667,72.65,83.77,77,94,5.79,PK,Tue Jul 25 21:16:34 2023
210,afif,23.9065,42.9172,80.28,21,99,10.69,SA,Tue Jul 25 21:16:34 2023
211,sao vicente,-23.9631,-46.3919,75.38,26,7,3.18,BR,Tue Jul 25 21:16:34 2023
212,long beach,33.767,-118.1892,89.98,76,0,12.66,US,Tue Jul 25 21:16:35 2023
213,odienne,9.51,-7.5692,70.65,97,99,1.66,CI,Tue Jul 25 21:16:35 2023
214,sunrise,26.1577,-80.2861,88.0,73,0,8.05,US,Tue Jul 25 21:14:19 2023
215,selfoss,63.9331,-20.9971,52.05,85,100,4.59,IS,Tue Jul 25 21:14:33 2023
216,tabas,33.5959,56.9244,89.82,13,0,2.3,IR,Tue Jul 25 21:16:36 2023
217,jwaneng,-24.6004,24.7303,49.89,89,0,17.4,BW,Tue Jul 25 21:16:36 2023
218,avarua,-21.2078,-159.775,73.45,64,20,8.05,CK,Tue Jul 25 21:16:36 2023
219,tura,25.5198,90.2201,80.82,81,100,7.76,IN,Tue Jul 25 21:16:36 2023
220,alo,7.4178,6.7371,73.72,97,100,2.51,NG,Tue Jul 25 21:16:37 2023
221,hermanus,-34.4187,19.2345,54.43,57,71,5.14,ZA,Tue Jul 25 21:16:37 2023
222,lisala,2.15,21.5167,70.0,98,100,2.26,CD,Tue Jul 25 21:16:37 2023
223,flying fish cove,-10.4217,105.6791,78.48,83,100,11.5,CX,Tue Jul 25 21:13:44 2023
224,louisville,38.2542,-85.7594,80.85,87,0,4.61,US,Tue Jul 25 21:15:20 2023
225,issia,6.4922,-6.5856,72.27,98,100,2.93,CI,Tue Jul 25 21:16:38 2023
226,zyryanskoye,56.8306,86.6258,69.84,69,57,8.52,RU,Tue Jul 25 21:16:38 2023
227,gaigeturi,33.4644,126.3183,84.25,79,75,5.75,KR,Tue Jul 25 21:16:38 2023
228,hastings,50.8552,0.5729,56.52,34,9,5.68,GB,Tue Jul 25 21:16:39 2023
229,berezovyy,51.6667,135.7,66.45,97,100,4.16,RU,Tue Jul 25 21:16:39 2023
230,corner brook,48.9667,-57.9484,60.96,86,7,4.38,CA,Tue Jul 25 21:16:39 2023
231,ulladulla,-35.35,150.4667,63.16,45,0,8.03,AU,Tue Jul 25 21:16:39 2023
232,nar'yan-mar,67.6713,53.087,63.64,77,63,2.1,RU,Tue Jul 25 21:16:39 2023
233,kudahuvadhoo,2.6708,72.8944,82.54,78,99,8.41,MV,Tue Jul 25 21:15:24 2023
234,santo antonio do ica,-3.1022,-67.9397,76.82,72,51,3.0,BR,Tue Jul 25 21:16:40 2023
235,pahrump,36.2083,-115.9839,101.44,16,4,3.0,US,Tue Jul 25 21:14:24 2023
236,jamestown,42.097,-79.2353,71.19,96,0,4.61,US,Tue Jul 25 21:13:14 2023
237,nove zamky,47.9854,18.1619,66.02,80,99,11.45,SK,Tue Jul 25 21:16:41 2023
238,petawawa,45.9001,-77.3328,64.78,89,74,3.69,CA,Tue Jul 25 21:16:41 2023
239,la'ie,21.6477,-157.9253,85.96,74,24,14.54,US,Tue Jul 25 21:16:41 2023
240,chibougamau,49.9168,-74.3659,60.42,77,100,4.36,CA,Tue Jul 25 21:16:41 2023
241,el granada,37.5027,-122.4694,75.52,78,0,18.41,US,Tue Jul 25 21:16:42 2023
242,antofagasta,-23.65,-70.4,61.88,83,49,5.82,CL,Tue Jul 25 21:12:21 2023
243,tuy hoa,13.0833,109.3,89.04,59,72,15.88,VN,Tue Jul 25 21:16:42 2023
244,oodweyne,9.4092,45.064,72.16,56,12,22.06,SO,Tue Jul 25 21:16:42 2023
245,masindi,1.6744,31.715,64.0,68,53,0.83,UG,Tue Jul 25 21:16:43 2023
246,viedma,-40.8135,-62.9967,46.15,84,74,11.36,AR,Tue Jul 25 21:16:43 2023
247,anadyr,64.75,177.4833,55.9,87,100,6.71,RU,Tue Jul 25 21:16:43 2023
248,mount gambier,-37.8333,140.7667,57.56,59,100,5.55,AU,Tue Jul 25 21:14:07 2023
249,san luis de la loma,17.2706,-100.8939,81.93,79,97,1.79,MX,Tue Jul 25 21:16:29 2023
250,bel ombre,-4.6167,55.4167,78.64,83,40,16.11,SC,Tue Jul 25 21:16:44 2023
251,venustiano carranza,19.43,-99.0992,62.15,90,100,6.91,MX,Tue Jul 25 21:13:36 2023
252,lihue,21.9789,-159.3672,83.79,72,40,19.57,US,Tue Jul 25 21:15:36 2023
253,pervomayskoye,43.919,46.7102,73.51,72,0,4.83,RU,Tue Jul 25 21:16:45 2023
254,mabaruma,8.2,-59.7833,75.02,97,9,3.24,GY,Tue Jul 25 21:16:45 2023
255,dera bugti,29.0307,69.151,85.73,63,100,3.04,PK,Tue Jul 25 21:16:45 2023
256,kulhudhuffushi,6.6221,73.07,81.5,79,100,7.34,MV,Tue Jul 25 21:16:46 2023
257,ancud,-41.8697,-73.8203,43.92,90,5,0.65,CL,Tue Jul 25 21:16:46 2023
258,luderitz,-26.6481,15.1594,56.01,71,100,3.44,NA,Tue Jul 25 21:16:47 2023
259,yanji,42.9075,129.5078,88.57,53,99,4.79,CN,Tue Jul 25 21:16:47 2023
260,bowen,-20.0167,148.2333,72.66,64,7,24.72,AU,Tue Jul 25 21:16:48 2023
261,nguigmi,14.2495,13.1092,86.86,46,100,12.46,NE,Tue Jul 25 21:16:48 2023
262,alexandreia,40.6267,22.4442,81.64,74,3,0.47,GR,Tue Jul 25 21:16:49 2023
263,dera ghazi khan,30.0561,70.6348,90.34,63,100,4.05,PK,Tue Jul 25 21:16:50 2023
264,sittwe,20.15,92.9,83.21,81,100,14.67,MM,Tue Jul 25 21:13:22 2023
265,son la,21.3167,103.9,86.29,60,95,1.05,VN,Tue Jul 25 21:16:50 2023
266,minas de marcona,-15.2119,-75.1103,53.47,88,49,14.2,PE,Tue Jul 25 21:16:51 2023
267,qamdo,31.1667,97.2333,50.43,66,99,5.75,CN,Tue Jul 25 21:16:51 2023
268,hithadhoo,-0.6,73.0833,82.83,79,100,15.86,MV,Tue Jul 25 21:16:51 2023
269,oruro,-17.9833,-67.15,38.44,21,0,5.77,BO,Tue Jul 25 21:16:51 2023
270,holualoa,19.6228,-155.9522,80.44,80,100,6.91,US,Tue Jul 25 21:16:52 2023
271,tolanaro,-25.0319,46.9987,65.05,64,100,8.39,MG,Tue Jul 25 21:16:52 2023
272,delaware,39.0004,-75.4999,72.05,97,0,0.0,US,Tue Jul 25 21:16:52 2023
273,kerikeri,-35.2268,173.9474,54.39,60,4,16.15,NZ,Tue Jul 25 21:16:52 2023
274,tazovsky,67.4667,78.7,61.02,58,81,12.12,RU,Tue Jul 25 21:16:53 2023
275,valentin gomez farias,28.2167,-106.5833,77.09,28,4,6.35,MX,Tue Jul 25 21:16:53 2023
276,enewetak,11.3474,162.3373,83.21,80,76,15.77,MH,Tue Jul 25 21:16:53 2023
277,chaihe,44.7667,129.7,80.8,65,100,6.58,CN,Tue Jul 25 21:16:53 2023
278,harper,4.375,-7.7169,76.28,89,100,8.1,LR,Tue Jul 25 21:15:46 2023
279,kijang,35.2442,129.2139,87.53,74,67,9.04,KR,Tue Jul 25 21:16:54 2023
280,tezu,27.9167,96.1667,78.8,90,100,0.31,IN,Tue Jul 25 21:16:54 2023
281,skeldon,5.8833,-57.1333,76.77,92,100,5.14,GY,Tue Jul 25 21:16:55 2023
282,kurchatov,51.6601,35.6521,72.41,75,77,15.88,RU,Tue Jul 25 21:16:55 2023
283,salalah,17.0151,54.0924,78.89,89,100,6.91,OM,Tue Jul 25 21:16:55 2023
284,loen,7.7601,168.2307,83.08,77,100,13.38,MH,Tue Jul 25 21:16:55 2023
285,mount isa,-20.7333,139.5,74.97,53,75,14.97,AU,Tue Jul 25 21:16:56 2023
286,vila franca do campo,37.7167,-25.4333,70.21,82,18,0.85,PT,Tue Jul 25 21:15:13 2023
287,kyelang,32.5833,77.0333,53.28,78,100,1.61,IN,Tue Jul 25 21:16:56 2023
288,mount pearl,47.5166,-52.7813,63.45,90,0,6.91,CA,Tue Jul 25 21:14:47 2023
289,marquette,46.5333,-87.6335,71.04,86,100,3.0,US,Tue Jul 25 21:16:57 2023
290,codrington,-38.2667,141.9667,56.62,67,100,8.95,AU,Tue Jul 25 21:16:57 2023
291,mar del plata,-38.0023,-57.5575,53.1,96,100,15.01,AR,Tue Jul 25 21:12:58 2023
292,aasiaat,68.7098,-52.8699,36.09,94,66,2.66,GL,Tue Jul 25 21:16:57 2023
293,san miguel panixtlahuaca,16.2484,-97.3843,66.94,97,100,0.78,MX,Tue Jul 25 21:16:58 2023
294,jijiga,9.35,42.8,63.0,76,87,15.21,ET,Tue Jul 25 21:16:58 2023
295,touros,-5.1989,-35.4608,72.63,87,25,12.59,BR,Tue Jul 25 21:15:15 2023
296,itaituba,-4.2761,-55.9836,74.88,59,5,1.36,BR,Tue Jul 25 21:16:58 2023
297,mili,6.0815,171.735,81.97,76,100,4.88,MH,Tue Jul 25 21:16:58 2023
298,gobabis,-22.45,18.9667,51.26,36,0,11.74,NA,Tue Jul 25 21:16:59 2023
299,andratx,39.5755,2.4202,75.43,74,4,6.98,ES,Tue Jul 25 21:16:59 2023
300,alpena,45.0617,-83.4327,66.52,94,20,1.01,US,Tue Jul 25 21:16:59 2023
301,taoudenni,22.6783,-3.9836,97.79,9,11,4.18,ML,Tue Jul 25 21:14:47 2023
302,qaqortoq,60.7167,-46.0333,41.38,94,76,2.86,GL,Tue Jul 25 21:17:00 2023
303,carnarvon,-24.8667,113.6333,64.04,56,94,15.23,AU,Tue Jul 25 21:17:00 2023
304,tindouf,27.6711,-8.1474,77.45,36,0,20.71,DZ,Tue Jul 25 21:17:00 2023
305,palikir - national government center,6.9248,158.1611,81.45,83,100,3.44,FM,Tue Jul 25 21:17:01 2023
306,constantia,44.1833,28.65,74.08,73,3,24.36,RO,Tue Jul 25 21:15:35 2023
307,carloforte,39.145,8.3058,76.86,59,0,21.27,IT,Tue Jul 25 21:17:01 2023
308,fada,9.5667,8.3,67.5,96,89,1.34,NG,Tue Jul 25 21:17:01 2023
309,forecariah,9.4306,-13.0881,73.81,97,96,1.48,GN,Tue Jul 25 21:17:01 2023
310,opuwo,-18.0607,13.84,58.98,38,0,4.38,NA,Tue Jul 25 21:13:16 2023
311,chinde,26.8418,88.0763,74.03,70,89,3.96,NP,Tue Jul 25 21:17:02 2023
312,kotabumi,-4.8333,104.9,84.22,68,72,6.98,ID,Tue Jul 25 21:17:02 2023
313,altai,46.3722,96.2583,65.46,23,28,2.64,MN,Tue Jul 25 21:17:02 2023
314,humberto de campos,-2.5983,-43.4611,75.56,89,19,5.08,BR,Tue Jul 25 21:17:03 2023
315,sungai penuh,-2.0833,101.3833,77.36,62,48,3.24,ID,Tue Jul 25 21:17:03 2023
316,atafu village,-8.5421,-172.5159,83.93,72,6,17.4,TK,Tue Jul 25 21:13:27 2023
317,zouerate,22.7187,-12.4521,86.16,25,9,13.53,MR,Tue Jul 25 21:17:03 2023
318,palmares do sul,-30.2578,-50.5097,62.87,96,100,10.42,BR,Tue Jul 25 21:17:04 2023
319,pekalongan,-6.8886,109.6753,85.01,56,17,2.59,ID,Tue Jul 25 21:13:29 2023
320,ust-tsilma,65.441,52.1498,59.85,86,49,2.77,RU,Tue Jul 25 21:17:04 2023
321,lata,40.1629,-8.3327,58.08,90,0,3.06,PT,Tue Jul 25 21:17:04 2023
322,luziania,-16.2525,-47.9503,69.49,52,9,5.77,BR,Tue Jul 25 21:17:05 2023
323,petauke,-14.2426,31.3253,58.35,59,7,11.52,ZM,Tue Jul 25 21:17:05 2023
324,tumaco,1.7986,-78.8156,78.28,86,100,8.9,CO,Tue Jul 25 21:17:05 2023
325,camayenne,9.535,-13.6878,76.91,88,100,3.4,GN,Tue Jul 25 21:17:06 2023
326,asau,46.4333,26.4,63.52,73,53,2.68,RO,Tue Jul 25 21:17:06 2023
327,madang,-5.2246,145.7966,77.76,90,99,2.42,PG,Tue Jul 25 21:17:06 2023
328,taro,-8.3862,115.28,73.4,72,51,5.01,ID,Tue Jul 25 21:17:06 2023
329,susuman,62.7833,148.1667,64.33,63,100,5.68,RU,Tue Jul 25 21:17:07 2023
330,geraldton,-28.7667,114.6,59.41,82,40,17.27,AU,Tue Jul 25 21:14:22 2023
331,peterhead,57.5058,-1.7981,51.46,87,14,11.5,GB,Tue Jul 25 21:17:07 2023
332,samus',56.7475,84.6992,71.01,73,75,8.32,RU,Tue Jul 25 21:17:07 2023
333,hammerfest,70.6634,23.6821,55.85,82,20,6.91,NO,Tue Jul 25 21:17:08 2023
334,nagqu,31.5,92.0,47.05,75,100,9.15,CN,Tue Jul 25 21:17:08 2023
335,kristiansund,63.1115,7.732,57.85,88,75,6.91,NO,Tue Jul 25 21:17:08 2023
336,jingzhou,30.3503,112.1903,79.25,85,99,1.19,CN,Tue Jul 25 21:17:09 2023
337,hualien city,23.9769,121.6044,80.85,96,100,11.3,TW,Tue Jul 25 21:17:09 2023
338,hamilton,39.1834,-84.5333,76.96,79,0,5.75,US,Tue Jul 25 21:12:36 2023
339,kitaibaraki,36.7833,140.75,94.14,66,66,1.01,JP,Tue Jul 25 21:17:10 2023
340,brixham,50.3943,-3.5159,52.32,89,28,1.01,GB,Tue Jul 25 21:17:11 2023
341,san antonio de pale,-1.4014,5.6325,72.9,89,69,9.17,GQ,Tue Jul 25 21:17:11 2023
342,calvinia,-31.4707,19.776,46.96,83,100,9.66,ZA,Tue Jul 25 21:17:12 2023
343,uliastay,47.7417,96.8444,66.94,31,76,2.48,MN,Tue Jul 25 21:17:12 2023
344,weno,7.4515,151.8468,89.55,74,100,3.44,FM,Tue Jul 25 21:17:13 2023
345,susz,53.7174,19.3365,55.71,87,92,5.99,PL,Tue Jul 25 21:17:13 2023
346,kolpashevo,58.3131,82.9089,69.46,68,38,5.59,RU,Tue Jul 25 21:13:34 2023
347,morrope,-6.5417,-80.0111,71.71,81,72,12.5,PE,Tue Jul 25 21:17:13 2023
348,mtwara,-10.2667,40.1833,69.94,87,7,13.15,TZ,Tue Jul 25 21:17:14 2023
349,magadan,59.5667,150.8,76.53,82,100,7.47,RU,Tue Jul 25 21:17:14 2023
350,el rosario,24.2556,-107.1828,82.09,78,100,4.25,MX,Tue Jul 25 21:17:14 2023
351,grand gaube,-20.0064,57.6608,67.37,87,4,3.38,MU,Tue Jul 25 21:17:15 2023
352,badger,64.8,-147.5333,85.51,51,75,8.05,US,Tue Jul 25 21:17:15 2023
353,lamu,-2.2717,40.902,75.42,88,62,7.23,KE,Tue Jul 25 21:17:16 2023
354,poggiardo,40.0542,18.3791,85.5,74,31,11.56,IT,Tue Jul 25 21:17:16 2023
355,villa rica,33.7321,-84.9191,81.79,93,12,1.95,US,Tue Jul 25 21:17:16 2023
356,griffith,41.5284,-87.4237,82.33,74,0,4.61,US,Tue Jul 25 21:17:17 2023
357,portland,45.5234,-122.6762,76.55,49,0,9.22,US,Tue Jul 25 21:04:27 2023
358,alofi,-19.0595,-169.9187,73.29,68,75,6.91,NU,Tue Jul 25 21:15:51 2023
359,regina,50.4501,-104.6178,75.04,55,0,3.44,CA,Tue Jul 25 21:12:31 2023
360,sebdou,34.637,-1.3314,63.7,25,0,3.29,DZ,Tue Jul 25 21:17:18 2023
361,chauk,20.8833,94.8167,88.21,59,75,14.61,MM,Tue Jul 25 21:17:18 2023
362,hami,42.8,93.45,94.21,9,0,13.22,CN,Tue Jul 25 21:17:18 2023
363,bonthe,7.5264,-12.505,76.17,90,100,3.02,SL,Tue Jul 25 21:17:19 2023
364,pokrovsk,48.282,37.1758,65.68,79,16,7.65,UA,Tue Jul 25 21:17:19 2023
365,pacific grove,36.6177,-121.9166,68.02,87,0,6.91,US,Tue Jul 25 21:17:19 2023
366,leua,48.2156,18.6071,65.5,92,99,5.3,SK,Tue Jul 25 21:17:20 2023
367,suntar,62.1444,117.6319,79.72,52,12,6.6,RU,Tue Jul 25 21:17:20 2023
368,old town,50.087,14.4202,59.0,94,0,9.22,CZ,Tue Jul 25 21:17:20 2023
369,mawu,29.5923,107.3139,75.94,88,100,2.48,CN,Tue Jul 25 21:17:21 2023
370,klyuchi,52.2667,79.1667,78.66,37,35,5.82,RU,Tue Jul 25 21:17:21 2023
371,minot air force base,48.4209,-101.3391,80.98,71,0,10.36,US,Tue Jul 25 21:17:21 2023
372,kolonia,50.9333,6.95,57.85,80,40,3.44,DE,Tue Jul 25 21:17:21 2023
373,kodiak,57.79,-152.4072,62.11,72,40,6.91,US,Tue Jul 25 21:17:22 2023
374,general pico,-35.6566,-63.7568,43.9,85,0,2.68,AR,Tue Jul 25 21:17:22 2023
375,tsiombe,-25.3,45.4833,60.28,67,18,7.27,MG,Tue Jul 25 21:17:22 2023
376,palmer,42.1584,-72.3287,68.41,86,75,0.0,US,Tue Jul 25 21:17:23 2023
377,mossel bay,-34.1831,22.146,42.73,42,31,3.74,ZA,Tue Jul 25 21:17:23 2023
378,sequeira,40.5536,-7.2259,55.09,68,0,3.71,PT,Tue Jul 25 21:17:23 2023
379,juba,4.8517,31.5825,72.37,80,98,3.06,SS,Tue Jul 25 21:17:23 2023
380,punta arenas,-53.15,-70.9167,30.72,87,25,9.04,CL,Tue Jul 25 21:14:34 2023
381,enriquillo,17.9,-71.2333,78.78,86,53,7.36,DO,Tue Jul 25 21:17:24 2023
382,katsuura,35.1333,140.3,90.75,52,80,8.93,JP,Tue Jul 25 21:17:24 2023
383,nuku'alofa,-21.1333,-175.2,71.94,73,75,5.75,TO,Tue Jul 25 21:17:24 2023
384,parnamirim,-5.9156,-35.2628,73.29,88,20,8.05,BR,Tue Jul 25 21:17:25 2023
385,shahrisabz,39.0578,66.8342,95.52,17,0,5.82,UZ,Tue Jul 25 21:17:25 2023
386,at taj,24.2049,23.2857,80.11,22,1,7.11,LY,Tue Jul 25 21:17:25 2023
387,atar,20.5169,-13.0499,93.29,14,39,8.79,MR,Tue Jul 25 21:17:25 2023
388,ust'-kulom,61.6864,53.6902,59.22,86,30,3.67,RU,Tue Jul 25 21:17:26 2023
389,cannonvale,-20.2833,148.7,69.19,53,14,17.34,AU,Tue Jul 25 21:17:26 2023
390,ouani,-12.1322,44.4258,75.99,77,47,15.41,KM,Tue Jul 25 21:17:26 2023
391,kapa'a,22.0752,-159.319,84.52,78,40,19.57,US,Tue Jul 25 21:17:27 2023
392,dalcahue,-42.3628,-73.7022,44.2,100,100,3.44,CL,Tue Jul 25 21:17:27 2023
393,port macquarie,-31.4333,152.9167,69.89,37,0,2.95,AU,Tue Jul 25 21:13:13 2023
394,labytnangi,66.6572,66.4183,65.8,64,100,13.71,RU,Tue Jul 25 21:17:28 2023
395,macusani,-14.0833,-70.4333,37.15,22,0,5.06,PE,Tue Jul 25 21:17:28 2023
396,warmbaths,-24.8833,28.2833,48.9,90,20,0.78,ZA,Tue Jul 25 21:17:28 2023
397,nasielsk,52.5889,20.8055,64.89,82,0,4.61,PL,Tue Jul 25 21:16:35 2023
398,ikalamavony,-21.15,46.5833,56.62,72,0,5.79,MG,Tue Jul 25 21:17:29 2023
399,antonio enes,-16.2325,39.9086,62.6,94,8,4.54,MZ,Tue Jul 25 21:17:30 2023
400,tyuratam,45.6507,63.3156,89.35,25,97,10.07,KZ,Tue Jul 25 21:17:30 2023
401,alaghsas,17.0187,8.0168,88.84,39,46,8.37,NE,Tue Jul 25 21:15:48 2023
402,shumikha,55.2261,63.2961,69.35,50,44,4.68,RU,Tue Jul 25 21:17:30 2023
403,klaksvik,62.2266,-6.589,47.32,77,85,11.81,FO,Tue Jul 25 21:17:31 2023
404,arar,30.9753,41.0381,84.22,21,0,9.22,SA,Tue Jul 25 21:17:31 2023
405,chimore,-16.9833,-65.1333,74.44,67,99,1.01,BO,Tue Jul 25 21:17:31 2023
406,pisco,-13.7,-76.2167,62.02,88,0,5.75,PE,Tue Jul 25 21:17:31 2023
407,urucara,-2.5364,-57.76,77.16,56,9,2.73,BR,Tue Jul 25 21:17:32 2023
408,san felipe,10.3399,-68.7425,72.75,97,78,2.53,VE,Tue Jul 25 21:17:32 2023
409,sisimiut,66.9395,-53.6735,42.44,90,41,10.69,GL,Tue Jul 25 21:17:32 2023
410,rouissat,31.9243,5.3502,87.87,11,0,3.44,DZ,Tue Jul 25 21:17:33 2023
411,hadibu,12.65,54.0333,77.52,73,67,31.36,YE,Tue Jul 25 21:17:33 2023
412,cabo san lucas,22.8909,-109.9124,86.61,76,100,9.22,MX,Tue Jul 25 21:12:53 2023
413,zhigalovo,54.8097,105.1578,71.19,72,100,3.11,RU,Tue Jul 25 21:17:33 2023
414,kuybyshev,55.4475,78.3218,71.15,60,6,7.67,RU,Tue Jul 25 21:17:34 2023
415,mogocha,53.7333,119.7667,79.97,46,16,3.44,RU,Tue Jul 25 21:17:34 2023
416,ribeira brava,32.65,-17.0667,70.72,77,19,3.11,PT,Tue Jul 25 21:17:34 2023
417,fale old settlement,-9.3852,-171.2468,83.44,73,6,16.98,TK,Tue Jul 25 21:17:35 2023
418,pavlohrad,48.5167,35.8667,71.08,67,43,10.76,UA,Tue Jul 25 21:17:35 2023
419,smithers,54.7804,-127.1743,64.72,68,75,3.44,CA,Tue Jul 25 21:17:35 2023
420,praia da vitoria,38.7333,-27.0667,71.85,83,40,8.88,PT,Tue Jul 25 21:17:36 2023
421,tazacorte,28.629,-17.9293,74.37,83,100,13.8,ES,Tue Jul 25 21:17:36 2023
422,macapa,0.0389,-51.0664,78.78,94,75,5.75,BR,Tue Jul 25 21:17:36 2023
423,laguna,38.421,-121.4238,94.32,37,0,8.05,US,Tue Jul 25 21:17:36 2023
424,phillip island,-38.4835,145.231,57.47,79,98,8.86,AU,Tue Jul 25 21:17:37 2023
425,benxi,41.2886,123.765,84.52,54,99,7.47,CN,Tue Jul 25 21:17:37 2023
426,avignon,44.0833,4.8333,64.29,63,0,13.8,FR,Tue Jul 25 21:17:37 2023
427,sumbe,-11.2061,13.8437,66.96,89,43,2.15,AO,Tue Jul 25 21:17:38 2023
428,mizan teferi,6.9833,35.5833,61.88,96,100,2.64,ET,Tue Jul 25 21:17:38 2023
429,prozor,43.8222,17.6092,61.83,92,16,5.48,BA,Tue Jul 25 21:17:38 2023
430,hlybokaye,55.1382,27.6879,58.1,94,100,5.35,BY,Tue Jul 25 21:17:38 2023
431,garden city,42.3256,-83.331,79.05,73,20,6.91,US,Tue Jul 25 21:13:24 2023
432,changli,39.7042,119.1506,87.08,64,0,5.1,CN,Tue Jul 25 21:17:39 2023
433,sundsvall,62.3913,17.3063,53.56,94,75,9.22,SE,Tue Jul 25 21:17:39 2023
434,quellon,-43.1167,-73.6167,46.65,87,100,3.44,CL,Tue Jul 25 21:17:39 2023
435,martaban,16.5314,97.6111,82.2,78,31,4.68,MM,Tue Jul 25 21:17:39 2023
436,carutapera,-1.195,-46.02,81.63,75,79,11.34,BR,Tue Jul 25 21:17:40 2023
437,de soto,34.9248,-89.9904,82.9,76,20,6.91,US,Tue Jul 25 21:17:40 2023
438,idri,27.5,13.2667,86.16,15,0,7.9,LY,Tue Jul 25 21:17:40 2023
439,rabo de peixe,37.8,-25.5833,69.31,83,75,4.61,PT,Tue Jul 25 21:17:40 2023
440,qarauyl,48.9451,79.255,75.72,36,19,12.26,KZ,Tue Jul 25 21:17:41 2023
441,phaphund,26.6,79.4667,92.07,55,92,8.7,IN,Tue Jul 25 21:17:41 2023
442,fredrikstad,59.2181,10.9298,54.09,76,0,5.75,NO,Tue Jul 25 21:17:41 2023
443,leava,-14.3,-178.1667,78.69,75,76,18.14,WF,Tue Jul 25 21:17:41 2023
444,talitsa,56.8804,60.0213,63.14,63,33,4.97,RU,Tue Jul 25 21:17:42 2023
445,an nuhud,12.7,28.4333,77.25,74,100,17.76,SD,Tue Jul 25 21:17:42 2023
446,labuan,5.2767,115.2417,86.36,70,20,5.75,MY,Tue Jul 25 21:17:42 2023
447,wotho,10.1657,166.0102,83.86,76,100,17.63,MH,Tue Jul 25 21:17:42 2023
448,dzhambeyty,50.2536,52.595,72.77,62,0,1.77,KZ,Tue Jul 25 21:17:43 2023
449,bocaiuva,-17.1078,-43.815,64.11,87,0,5.32,BR,Tue Jul 25 21:17:43 2023
450,zungeru,9.8128,6.1558,74.59,90,7,2.93,NG,Tue Jul 25 21:17:43 2023
451,morant bay,17.8815,-76.4093,85.62,80,46,6.04,JM,Tue Jul 25 21:17:43 2023
452,kochenevo,55.0218,82.202,72.79,44,21,10.51,RU,Tue Jul 25 21:17:44 2023
453,bei'an,24.5399,109.533,89.69,66,68,5.06,CN,Tue Jul 25 21:17:44 2023
454,labrador city,52.9463,-66.9114,57.11,94,75,5.75,CA,Tue Jul 25 21:17:44 2023
455,gizo,-8.103,156.8419,78.69,91,100,15.75,SB,Tue Jul 25 21:17:45 2023
456,port augusta,-32.5,137.7667,65.46,31,0,7.61,AU,Tue Jul 25 21:17:45 2023
457,brisas de zicatela,15.8369,-97.0419,77.52,73,100,8.05,MX,Tue Jul 25 21:16:48 2023
458,lagunas,-5.2269,-75.6753,76.84,71,22,2.01,PE,Tue Jul 25 21:17:45 2023
459,tralee,52.2704,-9.7026,56.88,95,100,5.7,IE,Tue Jul 25 21:17:46 2023
460,kidal,18.4411,1.4078,90.91,39,44,5.91,ML,Tue Jul 25 21:17:46 2023
461,necochea,-38.5473,-58.7368,45.23,92,100,7.2,AR,Tue Jul 25 21:17:46 2023
462,kodinsk,58.6881,99.1844,76.37,52,88,4.9,RU,Tue Jul 25 21:17:46 2023
463,saurimo,-9.6608,20.3916,59.77,48,36,4.65,AO,Tue Jul 25 21:17:46 2023
464,kyzyl-suu,42.3414,78.0056,70.14,37,0,1.16,KG,Tue Jul 25 21:17:47 2023
465,hinthada,17.6333,95.4667,83.8,75,89,6.69,MM,Tue Jul 25 21:17:47 2023
466,papao,-17.75,-149.55,80.28,82,4,8.61,PF,Tue Jul 25 21:17:47 2023
467,ta`u,-14.2336,-169.5144,78.13,68,91,8.25,AS,Tue Jul 25 21:17:47 2023
468,tucurui,-3.7661,-49.6725,80.98,49,89,2.71,BR,Tue Jul 25 21:17:48 2023
469,amble,55.3333,-1.5833,54.36,100,100,5.75,GB,Tue Jul 25 21:17:48 2023
470,beya,53.0533,90.9139,72.39,53,82,10.85,RU,Tue Jul 25 21:17:48 2023
471,galliano,29.4422,-90.2992,80.01,88,0,0.0,US,Tue Jul 25 21:17:49 2023
472,qui nhon,13.7667,109.2333,89.42,58,59,12.48,VN,Tue Jul 25 21:17:49 2023
473,paraty,-23.2178,-44.7131,71.19,77,61,3.69,BR,Tue Jul 25 21:17:49 2023
474,pedernales,18.0384,-71.744,83.32,72,42,3.65,DO,Tue Jul 25 21:17:49 2023
475,shimoda,34.6667,138.95,92.1,64,61,6.76,JP,Tue Jul 25 21:17:50 2023
476,termoli,41.9888,14.9895,75.58,72,2,10.96,IT,Tue Jul 25 21:17:50 2023
477,yartsevo,55.0667,32.6964,60.66,99,100,3.11,RU,Tue Jul 25 21:17:50 2023
478,mishelevka,52.8575,103.1719,60.06,94,100,4.45,RU,Tue Jul 25 21:17:50 2023
479,kimberley,-28.7323,24.7623,51.49,82,0,13.8,ZA,Tue Jul 25 21:17:51 2023
480,rikaze,29.25,88.8833,54.18,70,100,3.71,CN,Tue Jul 25 21:17:51 2023
481,kavaratti,10.5669,72.642,82.54,75,100,17.81,IN,Tue Jul 25 21:17:51 2023
482,kruisfontein,-34.0033,24.7314,51.15,28,1,4.63,ZA,Tue Jul 25 21:14:36 2023
483,nadym,65.5333,72.5167,69.35,69,100,12.1,RU,Tue Jul 25 21:17:52 2023
484,ust'-ordynskiy,52.805,104.7508,72.59,57,100,7.96,RU,Tue Jul 25 21:17:52 2023
485,bollnas,61.3482,16.3946,55.24,98,100,2.37,SE,Tue Jul 25 21:17:52 2023
486,vizinga,61.0749,50.1031,56.07,93,26,4.72,RU,Tue Jul 25 21:17:52 2023
487,haeju,38.0406,125.7147,81.63,79,100,12.33,KP,Tue Jul 25 21:17:52 2023
488,acapulco de juarez,16.8634,-99.8901,85.82,70,100,4.61,MX,Tue Jul 25 21:16:06 2023
489,luanda,-8.8368,13.2343,71.6,83,75,3.44,AO,Tue Jul 25 21:17:53 2023
490,crescent city,41.756,-124.2018,68.74,85,0,11.5,US,Tue Jul 25 21:17:53 2023
491,sabzevar,36.2126,57.6819,88.43,14,0,12.19,IR,Tue Jul 25 21:17:53 2023
492,queenstown,-31.8976,26.8753,48.22,21,52,6.08,ZA,Tue Jul 25 21:13:01 2023
493,tharad,24.3961,71.6267,86.0,73,100,10.45,IN,Tue Jul 25 21:17:54 2023
494,sinop,41.7711,34.8709,62.31,68,0,7.72,TR,Tue Jul 25 21:14:27 2023
495,karratha,-20.7377,116.8463,69.94,65,71,15.48,AU,Tue Jul 25 21:17:54 2023
496,international falls,48.6011,-93.411,74.03,78,75,0.0,US,Tue Jul 25 21:17:38 2023
497,fort mcmurray,56.7268,-111.381,63.99,82,100,18.41,CA,Tue Jul 25 21:17:55 2023
498,darnah,32.767,22.6367,85.89,46,0,14.65,LY,Tue Jul 25 21:17:55 2023
499,kourou,5.1552,-52.6478,75.25,90,38,5.91,GF,Tue Jul 25 21:17:55 2023
500,arkhangel'sk,64.5401,40.5433,55.65,93,41,5.88,RU,Tue Jul 25 21:17:55 2023
501,acarau,-2.8856,-40.12,78.1,85,46,16.33,BR,Tue Jul 25 21:17:56 2023
502,dzhalagash,45.0833,64.6667,92.41,21,4,7.85,KZ,Tue Jul 25 21:17:56 2023
503,n'zeto,-7.2312,12.8666,70.07,89,46,3.94,AO,Tue Jul 25 21:17:56 2023
504,verkhnevilyuysk,63.4453,120.3167,73.53,38,62,5.66,RU,Tue Jul 25 21:17:56 2023
505,melfort,52.8667,-104.6177,75.33,73,0,3.44,CA,Tue Jul 25 21:17:57 2023
506,sao joaquim,-28.2939,-49.9317,52.05,91,89,3.11,BR,Tue Jul 25 21:17:57 2023
507,sao jose da coroa grande,-8.8978,-35.1478,70.7,93,50,2.06,BR,Tue Jul 25 21:13:11 2023
508,barentu,15.1139,37.5928,71.53,73,100,11.18,ER,Tue Jul 25 21:17:58 2023
509,las khorey,11.1595,48.1967,88.63,59,7,12.59,SO,Tue Jul 25 21:17:58 2023
510,vernon,50.2581,-119.2691,69.6,38,99,5.75,CA,Tue Jul 25 21:17:58 2023
511,hede,33.7681,120.2517,85.26,78,100,10.33,CN,Tue Jul 25 21:17:58 2023
512,prince rupert,54.3161,-130.3201,60.49,85,100,4.61,CA,Tue Jul 25 21:14:17 2023
513,medicine hat,50.0501,-110.6683,77.43,28,20,23.02,CA,Tue Jul 25 21:15:26 2023
514,olyokminsk,60.3736,120.4264,85.1,41,5,5.12,RU,Tue Jul 25 21:17:59 2023
515,lakatoro,-16.0999,167.4164,76.28,68,98,16.96,VU,Tue Jul 25 21:14:31 2023
516,micheweni,-4.9667,39.8333,75.65,82,45,14.34,TZ,Tue Jul 25 21:18:00 2023
517,la paz,-16.5,-68.15,47.57,20,0,5.01,BO,Tue Jul 25 21:14:35 2023
518,kuta,-8.7233,115.1723,80.55,74,40,16.11,ID,Tue Jul 25 21:18:00 2023
519,siping,43.1633,124.3686,83.23,71,30,10.63,CN,Tue Jul 25 21:18:00 2023
520,port douglas,-16.4833,145.4667,69.6,96,100,7.67,AU,Tue Jul 25 21:17:15 2023
521,amqui,48.4638,-67.4313,61.77,94,100,3.4,CA,Tue Jul 25 21:18:01 2023
522,de aar,-30.6497,24.0123,52.92,52,36,14.52,ZA,Tue Jul 25 21:18:01 2023
523,areia branca,-4.9561,-37.1369,77.52,66,21,17.98,BR,Tue Jul 25 21:13:02 2023
524,piacabucu,-10.4056,-36.4344,69.62,91,51,5.14,BR,Tue Jul 25 21:18:01 2023
525,linhares,-19.3911,-40.0722,68.61,98,99,0.4,BR,Tue Jul 25 21:18:02 2023
526,moyo,3.6609,31.7247,68.14,80,100,1.34,UG,Tue Jul 25 21:18:02 2023
527,nurabad,34.0734,47.9725,70.43,25,0,1.79,IR,Tue Jul 25 21:18:03 2023
528,itoman,26.1247,127.6694,84.97,86,75,18.41,JP,Tue Jul 25 21:18:03 2023
529,manta,-0.95,-80.7333,78.01,73,0,13.0,EC,Tue Jul 25 21:18:04 2023
530,guajara mirim,-10.7828,-65.3394,75.29,48,34,2.84,BR,Tue Jul 25 21:18:04 2023
531,mata-utu,-13.2816,-176.1745,80.1,75,98,16.11,WF,Tue Jul 25 21:18:04 2023
532,buston,40.2342,69.6948,91.58,35,20,4.47,TJ,Tue Jul 25 21:18:04 2023
533,aral,40.5156,81.2636,88.59,26,17,0.87,CN,Tue Jul 25 21:18:05 2023
534,cidreira,-30.1811,-50.2056,62.96,96,100,9.24,BR,Tue Jul 25 21:16:37 2023
535,thatta,24.7475,67.9235,85.78,71,100,11.61,PK,Tue Jul 25 21:18:05 2023
536,neiafu,-18.65,-173.9833,77.68,61,75,6.91,TO,Tue Jul 25 21:18:06 2023
537,argo,37.6333,22.7333,86.88,22,0,8.88,GR,Tue Jul 25 21:18:06 2023
538,swakopmund,-22.6833,14.5333,53.98,85,0,1.01,NA,Tue Jul 25 21:18:06 2023
539,severo-yeniseyskiy,60.3725,93.0408,69.62,69,99,2.48,RU,Tue Jul 25 21:18:07 2023
540,abancay,-13.6339,-72.8814,54.27,90,16,2.66,PE,Tue Jul 25 21:13:09 2023
541,amga,60.8953,131.9608,79.29,35,0,7.81,RU,Tue Jul 25 21:18:07 2023
542,yeraliyev,43.2,51.65,75.09,66,95,15.84,KZ,Tue Jul 25 21:18:07 2023
543,soe,-9.8607,124.284,71.67,56,51,5.7,ID,Tue Jul 25 21:18:08 2023
544,nikolayevsk-on-amure,53.1406,140.73,68.49,93,100,2.66,RU,Tue Jul 25 21:18:08 2023
545,santa elena de uairen,4.6167,-61.1333,68.94,90,99,3.24,VE,Tue Jul 25 21:18:08 2023
546,guarapari,-20.6667,-40.4975,67.89,99,100,3.36,BR,Tue Jul 25 21:18:08 2023
547,bandon,51.7469,-8.7425,58.59,98,100,10.54,IE,Tue Jul 25 21:18:09 2023
548,isangel,-19.55,169.2667,73.51,78,75,6.91,VU,Tue Jul 25 21:13:15 2023
549,ringkobing,56.0901,8.244,53.02,68,48,22.86,DK,Tue Jul 25 21:18:09 2023
550,guatrache,-37.6678,-63.5302,46.94,70,100,11.54,AR,Tue Jul 25 21:18:09 2023
551,merizo village,13.2658,144.6691,85.73,88,100,23.4,GU,Tue Jul 25 21:18:10 2023
552,saint-pierre,-21.3393,55.4781,67.68,60,0,10.36,RE,Tue Jul 25 21:18:10 2023
553,peskovka,59.0448,52.3606,56.39,94,43,3.11,RU,Tue Jul 25 21:18:10 2023
554,belgrade,44.804,20.4651,68.34,90,40,8.05,RS,Tue Jul 25 21:17:29 2023
555,anqiu,36.4342,119.1925,89.98,55,89,7.56,CN,Tue Jul 25 21:18:11 2023
556,wanning,18.8003,110.3967,89.76,59,13,1.7,CN,Tue Jul 25 21:18:11 2023
557,hassi messaoud,31.6804,6.0729,85.86,13,0,1.14,DZ,Tue Jul 25 21:18:11 2023
558,san andres,12.5847,-81.7006,82.42,83,20,13.8,CO,Tue Jul 25 21:17:29 2023
559,krasyliv,49.6519,26.9725,62.55,91,45,11.61,UA,Tue Jul 25 21:18:12 2023
560,mwinilunga,-11.7358,24.4293,54.91,51,33,4.65,ZM,Tue Jul 25 21:18:12 2023
561,dolores,-36.3132,-57.6792,50.4,95,100,5.37,AR,Tue Jul 25 21:18:13 2023
562,hachinohe,40.5,141.5,89.78,55,75,11.5,JP,Tue Jul 25 21:18:13 2023
563,cadale,2.7603,46.3222,76.53,82,47,19.13,SO,Tue Jul 25 21:18:13 2023
